{
"type": "FeatureCollection",
"features": [
{
  "type": "Feature",
  "id": "node/2458181794",
  "properties": {
    "description": "Kantonsbibliothek",
    "emergency": "defibrillator",
    "emergency:phone": "144",
    "indoor": "no",
    "opening_hours": "24/7",
    "id": "node/2458181794"
  },
  "geometry": {
    "type": "Point",
    "coordinates": [
      8.3698766,
      46.9566575
    ]
  }
},
{
  "type": "Feature",
  "id": "node/3608449220",
  "properties": {
    "access": "yes",
    "defibrillator:location": "Standort;Eingang COOP/ RAV, rechts neben der Treppe an der Wand",
    "emergency": "defibrillator",
    "emergency:phone": "144",
    "indoor": "no",
    "operator": "Gemeinde Hergiswil",
    "wheelchair": "yes",
    "id": "node/3608449220"
  },
  "geometry": {
    "type": "Point",
    "coordinates": [
      8.3102743,
      46.9817254
    ]
  }
},
{
  "type": "Feature",
  "id": "node/5401265428",
  "properties": {
    "description": "bei der Sammelstelle Gemeindeparkplatz",
    "emergency": "defibrillator",
    "emergency:phone": "144",
    "indoor": "no",
    "opening_hours": "24/7",
    "id": "node/5401265428"
  },
  "geometry": {
    "type": "Point",
    "coordinates": [
      8.3645563,
      46.9612052
    ]
  }
},
{
  "type": "Feature",
  "id": "node/5723650345",
  "properties": {
    "emergency": "defibrillator",
    "emergency:phone": "144",
    "name": "Schulhaus Pestalozzi",
    "opening_hours": "24/7",
    "id": "node/5723650345"
  },
  "geometry": {
    "type": "Point",
    "coordinates": [
      8.3696857,
      46.9576735
    ]
  }
},
{
  "type": "Feature",
  "id": "node/5859259865",
  "properties": {
    "emergency": "defibrillator",
    "emergency:phone": "144",
    "opening_hours": "24/7",
    "id": "node/5859259865"
  },
  "geometry": {
    "type": "Point",
    "coordinates": [
      8.3843037,
      46.9554125
    ]
  }
},
{
  "type": "Feature",
  "id": "node/5859260420",
  "properties": {
    "defibrillator:location": "An der Fassade",
    "description": "Postgebäude",
    "emergency": "defibrillator",
    "emergency:phone": "144",
    "indoor": "no",
    "opening_hours": "24/7",
    "id": "node/5859260420"
  },
  "geometry": {
    "type": "Point",
    "coordinates": [
      8.3672221,
      46.9588231
    ]
  }
},
{
  "type": "Feature",
  "id": "node/6151468472",
  "properties": {
    "defibrillator:location": "Ausserhalb",
    "description": "Bei Gerätedepot",
    "emergency": "defibrillator",
    "emergency:phone": "144",
    "indoor": "no",
    "opening_hours": "24/7",
    "id": "node/6151468472"
  },
  "geometry": {
    "type": "Point",
    "coordinates": [
      8.3710651,
      46.9551559
    ]
  }
},
{
  "type": "Feature",
  "id": "node/6875363551",
  "properties": {
    "emergency": "defibrillator",
    "emergency:phone": "144",
    "opening_hours": "24/7",
    "id": "node/6875363551"
  },
  "geometry": {
    "type": "Point",
    "coordinates": [
      8.3992363,
      46.9807249
    ]
  }
},
{
  "type": "Feature",
  "id": "node/7637812545",
  "properties": {
    "description": "Eingang Verwaltungsgebäude",
    "emergency": "defibrillator",
    "emergency:phone": "144",
    "name": "Bettermann AG",
    "id": "node/7637812545"
  },
  "geometry": {
    "type": "Point",
    "coordinates": [
      8.3981791,
      46.9227755
    ]
  }
},
{
  "type": "Feature",
  "id": "node/7637812546",
  "properties": {
    "description": "re. bei der Eingangstreppe",
    "emergency": "defibrillator",
    "emergency:phone": "144",
    "name": "Gemeindeverwaltung",
    "id": "node/7637812546"
  },
  "geometry": {
    "type": "Point",
    "coordinates": [
      8.39546,
      46.9086926
    ]
  }
},
{
  "type": "Feature",
  "id": "node/7637812547",
  "properties": {
    "description": "Haupteingang",
    "emergency": "defibrillator",
    "emergency:phone": "144",
    "name": "Schulhaus Dönni",
    "id": "node/7637812547"
  },
  "geometry": {
    "type": "Point",
    "coordinates": [
      8.3994296,
      46.9089922
    ]
  }
},
{
  "type": "Feature",
  "id": "node/7637812548",
  "properties": {
    "defibrillator:location": "Rechts der Türe des Sanitätszimmers",
    "emergency": "defibrillator",
    "emergency:phone": "144",
    "name": "Bergbahnen Engelberg-Trübsee-Ttilis AG",
    "id": "node/7637812548"
  },
  "geometry": {
    "type": "Point",
    "coordinates": [
      8.417103,
      46.7826204
    ]
  }
},
{
  "type": "Feature",
  "id": "node/7637812549",
  "properties": {
    "defibrillator:location": "Im Sanitätszimmer",
    "emergency": "defibrillator",
    "emergency:phone": "144",
    "name": "Bergbahnen Engelberg-Trübsee-Ttilis AG",
    "id": "node/7637812549"
  },
  "geometry": {
    "type": "Point",
    "coordinates": [
      8.386694,
      46.778635
    ]
  }
},
{
  "type": "Feature",
  "id": "node/7637812550",
  "properties": {
    "description": "Ausserhalb Feuerwehrgebeude",
    "emergency": "defibrillator",
    "emergency:phone": "144",
    "name": "Feuerwehrlokal Wirzweli Aussenmauer",
    "id": "node/7637812550"
  },
  "geometry": {
    "type": "Point",
    "coordinates": [
      8.35902,
      46.91107
    ]
  }
},
{
  "type": "Feature",
  "id": "node/7637818395",
  "properties": {
    "defibrillator:location": "Beim Lift gegenüber des Sanitätszimmers",
    "emergency": "defibrillator",
    "emergency:phone": "144",
    "name": "Bergbahnen Engelberg-Trübsee-Titlis AG",
    "id": "node/7637818395"
  },
  "geometry": {
    "type": "Point",
    "coordinates": [
      8.399027,
      46.793897
    ]
  }
},
{
  "type": "Feature",
  "id": "node/7637818427",
  "properties": {
    "description": "Treppenhaus 1.OG",
    "emergency": "defibrillator",
    "emergency:phone": "144",
    "name": "CKW Conex AG",
    "id": "node/7637818427"
  },
  "geometry": {
    "type": "Point",
    "coordinates": [
      8.3388549,
      46.9712496
    ]
  }
},
{
  "type": "Feature",
  "id": "node/7637818428",
  "properties": {
    "description": "im Treppenhaus 2. Stock",
    "emergency": "defibrillator",
    "emergency:phone": "144",
    "name": "Fa. Polytrona",
    "id": "node/7637818428"
  },
  "geometry": {
    "type": "Point",
    "coordinates": [
      8.3409563,
      46.9727354
    ]
  }
},
{
  "type": "Feature",
  "id": "node/7637818430",
  "properties": {
    "description": "Foyer / Eingangsbereich Turnhalle",
    "emergency": "defibrillator",
    "emergency:phone": "144",
    "name": "Schulhaus",
    "id": "node/7637818430"
  },
  "geometry": {
    "type": "Point",
    "coordinates": [
      8.3416897,
      46.980403
    ]
  }
},
{
  "type": "Feature",
  "id": "node/7637818431",
  "properties": {
    "defibrillator:location": "Auf der Hafen Seite neben dem Eingang, Jugendbüro/ Hafenmeister",
    "description": "Aussenanlage",
    "emergency": "defibrillator",
    "emergency:phone": "144",
    "name": "Stationsgebäude",
    "opening_hours": "24/7",
    "operator": "Politische Gemeinde Stansstad",
    "id": "node/7637818431"
  },
  "geometry": {
    "type": "Point",
    "coordinates": [
      8.3362957,
      46.9804914
    ]
  }
},
{
  "type": "Feature",
  "id": "node/7637818432",
  "properties": {
    "defibrillator:location": "Während der Saison im Badmeisterbüro. \nAusserhalb der Saison im Areal im Aussenkasten beim Altbau.",
    "emergency": "defibrillator",
    "emergency:phone": "144",
    "name": "Strandbad Stansstad",
    "operator": "Politische Gemeinde Stansstad",
    "id": "node/7637818432"
  },
  "geometry": {
    "type": "Point",
    "coordinates": [
      8.3391098,
      46.9801804
    ]
  }
},
{
  "type": "Feature",
  "id": "node/7637818433",
  "properties": {
    "access": "yes",
    "defibrillator:location": "Haupteingang Restaurant, Rechte Seite Innen",
    "emergency": "defibrillator",
    "emergency:phone": "144",
    "indoor": "yes",
    "name": "Bergstation Stanserhornbahn",
    "opening_hours": "Mo-Su 08:45-17:15; Th-Sa 08:45-23:00",
    "operator": "Stanserhorn-Bahn",
    "phone": "+41 41 618 80 40",
    "wheelchair": "yes",
    "id": "node/7637818433"
  },
  "geometry": {
    "type": "Point",
    "coordinates": [
      8.3429955,
      46.9303554
    ]
  }
},
{
  "type": "Feature",
  "id": "node/7637818436",
  "properties": {
    "description": "EG Kundentreppenhaus b. Plakatwand / 1. OG Migros-Kundendienst an Rückwand / 2. OG Kundentreppenhaus",
    "emergency": "defibrillator",
    "emergency:phone": "144",
    "indoor": "yes",
    "name": "Einkaufszentrum Länderpark",
    "id": "node/7637818436"
  },
  "geometry": {
    "type": "Point",
    "coordinates": [
      8.3556565,
      46.9646845
    ]
  }
},
{
  "type": "Feature",
  "id": "node/7637818437",
  "properties": {
    "emergency": "defibrillator",
    "emergency:phone": "144",
    "name": "Fitness One",
    "id": "node/7637818437"
  },
  "geometry": {
    "type": "Point",
    "coordinates": [
      8.383377,
      46.9643694
    ]
  }
},
{
  "type": "Feature",
  "id": "node/7637818438",
  "properties": {
    "description": "Hauptgebäude",
    "emergency": "defibrillator",
    "emergency:phone": "144",
    "indoor": "yes",
    "name": "Job-Vision Kt. NW",
    "id": "node/7637818438"
  },
  "geometry": {
    "type": "Point",
    "coordinates": [
      8.36481,
      46.96935
    ]
  }
},
{
  "type": "Feature",
  "id": "node/7637818439",
  "properties": {
    "description": "Eingang zum Zivilstandsamt",
    "emergency": "defibrillator",
    "emergency:phone": "144",
    "indoor": "no",
    "name": "Kantonale Verwaltung",
    "opening_hours": "24/7",
    "id": "node/7637818439"
  },
  "geometry": {
    "type": "Point",
    "coordinates": [
      8.3667386,
      46.9566455
    ]
  }
},
{
  "type": "Feature",
  "id": "node/7637818440",
  "properties": {
    "access": "yes",
    "description": "Werkstatt EG",
    "emergency": "defibrillator",
    "emergency:phone": "144",
    "indoor": "no",
    "name": "Lifetec Montana Sport",
    "id": "node/7637818440"
  },
  "geometry": {
    "type": "Point",
    "coordinates": [
      8.3587772,
      46.9671958
    ]
  }
},
{
  "type": "Feature",
  "id": "node/7637818441",
  "properties": {
    "access": "yes",
    "description": "Portier / Nachtwache",
    "emergency": "defibrillator",
    "emergency:phone": "144",
    "name": "Pilatus Flugzeugwerke",
    "opening_hours": "24/7",
    "id": "node/7637818441"
  },
  "geometry": {
    "type": "Point",
    "coordinates": [
      8.3801617,
      46.9735986
    ]
  }
},
{
  "type": "Feature",
  "id": "node/7637818445",
  "properties": {
    "description": "Eingang zur Truppenunterkunft",
    "emergency": "defibrillator",
    "emergency:phone": "144",
    "name": "Sportanlage Eichli",
    "id": "node/7637818445"
  },
  "geometry": {
    "type": "Point",
    "coordinates": [
      8.3640387,
      46.9674156
    ]
  }
},
{
  "type": "Feature",
  "id": "node/7637818447",
  "properties": {
    "description": "neben Briefkästen",
    "emergency": "defibrillator",
    "emergency:phone": "144",
    "indoor": "no",
    "name": "Staatsarchiv",
    "id": "node/7637818447"
  },
  "geometry": {
    "type": "Point",
    "coordinates": [
      8.3602989,
      46.9626142
    ]
  }
},
{
  "type": "Feature",
  "id": "node/7637818448",
  "properties": {
    "description": "Haupteingang re.",
    "emergency": "defibrillator",
    "emergency:phone": "144",
    "name": "Strassenverkehrsamt",
    "id": "node/7637818448"
  },
  "geometry": {
    "type": "Point",
    "coordinates": [
      8.3854284,
      46.9644515
    ]
  }
},
{
  "type": "Feature",
  "id": "node/7637818449",
  "properties": {
    "access": "yes",
    "defibrillator:location": "Links vom Eingang neben Postbriefkasten",
    "emergency": "defibrillator",
    "emergency:phone": "144",
    "indoor": "no",
    "name": "Talstation Stanserhornbahn",
    "opening_hours": "24/7",
    "operator": "Stanserhorn-Bahn",
    "phone": "+41 41 618 80 40",
    "wheelchair": "yes",
    "id": "node/7637818449"
  },
  "geometry": {
    "type": "Point",
    "coordinates": [
      8.3635248,
      46.9585459
    ]
  }
},
{
  "type": "Feature",
  "id": "node/7637818450",
  "properties": {
    "access": "yes",
    "defibrillator:location": "Linke Seite Hauteingang",
    "emergency": "defibrillator",
    "emergency:phone": "144",
    "indoor": "no",
    "name": "Stiftung Alters- und Pflegeheim Nidwalden",
    "opening_hours": "24/7",
    "id": "node/7637818450"
  },
  "geometry": {
    "type": "Point",
    "coordinates": [
      8.3621729,
      46.9585213
    ]
  }
},
{
  "type": "Feature",
  "id": "node/7637818585",
  "properties": {
    "emergency": "defibrillator",
    "emergency:phone": "144",
    "name": "Amt für Militär und Bevölkerungsschutz",
    "id": "node/7637818585"
  },
  "geometry": {
    "type": "Point",
    "coordinates": [
      8.3865284,
      46.9582802
    ]
  }
},
{
  "type": "Feature",
  "id": "node/7637818586",
  "properties": {
    "description": "Aussenwand Schulhaus",
    "emergency": "defibrillator",
    "emergency:phone": "144",
    "name": "Schwimmbad Schulhaus",
    "id": "node/7637818586"
  },
  "geometry": {
    "type": "Point",
    "coordinates": [
      8.3842424,
      46.9553035
    ]
  }
},
{
  "type": "Feature",
  "id": "node/7637818587",
  "properties": {
    "description": "Zentrum Bevölkerungsschutz",
    "emergency": "defibrillator",
    "emergency:phone": "144",
    "name": "Zentrum Bevölkerungsschutz",
    "id": "node/7637818587"
  },
  "geometry": {
    "type": "Point",
    "coordinates": [
      8.3862632,
      46.9611251
    ]
  }
},
{
  "type": "Feature",
  "id": "node/7637818588",
  "properties": {
    "description": "Im Gebäude gerade aus bei der Brandmeldezentrale links",
    "emergency": "defibrillator",
    "emergency:phone": "144",
    "name": "Höhere Fachschule Bürgenstock",
    "id": "node/7637818588"
  },
  "geometry": {
    "type": "Point",
    "coordinates": [
      8.3913574,
      46.9957939
    ]
  }
},
{
  "type": "Feature",
  "id": "node/7637818869",
  "properties": {
    "access": "yes",
    "description": "Bootshaus aussen",
    "emergency": "defibrillator",
    "emergency:phone": "144",
    "name": "Lifetec Bootshafen Hostatt",
    "opening_hours": "24/7",
    "id": "node/7637818869"
  },
  "geometry": {
    "type": "Point",
    "coordinates": [
      8.3708492,
      47.0034507
    ]
  }
},
{
  "type": "Feature",
  "id": "node/7637818925",
  "properties": {
    "access": "yes",
    "defibrillator:location": "Standort;Ecke Aussenfassade Nord, beim Veloständer.",
    "emergency": "defibrillator",
    "emergency:phone": "144",
    "indoor": "no",
    "name": "Badi Hergiswil",
    "operator": "Gemeinde Hergiswil",
    "id": "node/7637818925"
  },
  "geometry": {
    "type": "Point",
    "coordinates": [
      8.3136079,
      46.9955476
    ]
  }
},
{
  "type": "Feature",
  "id": "node/7637818926",
  "properties": {
    "access": "yes",
    "check_date": "2024-09-13",
    "defibrillator:location": "An der Gebäudefassade Bootshafen Haus beim Eingang neben Anschlagskasten",
    "emergency": "defibrillator",
    "emergency:phone": "144",
    "indoor": "no",
    "name": "Bootshafen Hafenmeister-Haus",
    "operator": "Gemeinde Hergiswil",
    "id": "node/7637818926"
  },
  "geometry": {
    "type": "Point",
    "coordinates": [
      8.3121379,
      46.9797092
    ]
  }
},
{
  "type": "Feature",
  "id": "node/7637818927",
  "properties": {
    "access": "yes",
    "defibrillator:location": "Beim öffentlichen Anschlagkasten (in der Mitte) der Gemeinde Hergiswil",
    "emergency": "defibrillator",
    "emergency:phone": "144",
    "indoor": "no",
    "name": "Gemeindehaus Hergiswil",
    "operator": "Gemeinde Hergiswil",
    "id": "node/7637818927"
  },
  "geometry": {
    "type": "Point",
    "coordinates": [
      8.3146667,
      46.9890656
    ]
  }
},
{
  "type": "Feature",
  "id": "node/7637818928",
  "properties": {
    "access": "yes",
    "defibrillator:location": "Standort;Links neben der Aussenfassade, Eingang Loppersaal.",
    "emergency": "defibrillator",
    "emergency:phone": "144",
    "indoor": "no",
    "name": "Loppersaal",
    "operator": "Gemeinde Hergiswil",
    "id": "node/7637818928"
  },
  "geometry": {
    "type": "Point",
    "coordinates": [
      8.3106077,
      46.9902076
    ]
  }
},
{
  "type": "Feature",
  "id": "node/7637818929",
  "properties": {
    "access": "no",
    "defibrillator:location": "Den Fussweg hoch bis zum 2 obersten Haus.",
    "emergency": "defibrillator",
    "emergency:phone": "144",
    "indoor": "yes",
    "name": "Praevo GmbH",
    "phone": "+41794403284",
    "id": "node/7637818929"
  },
  "geometry": {
    "type": "Point",
    "coordinates": [
      8.3030347,
      46.9911269
    ]
  }
},
{
  "type": "Feature",
  "id": "node/7637818930",
  "properties": {
    "access": "yes",
    "addr:housenumber": "4a",
    "addr:street": "Renggstrasse",
    "defibrillator:location": "Renggstrasse 4a",
    "description": "Hauswand strassenseitig",
    "emergency": "defibrillator",
    "emergency:phone": "144",
    "indoor": "no",
    "name": "Privathaus",
    "opening_hours": "24/7",
    "id": "node/7637818930"
  },
  "geometry": {
    "type": "Point",
    "coordinates": [
      8.3093246,
      46.984112
    ]
  }
},
{
  "type": "Feature",
  "id": "node/7637818931",
  "properties": {
    "access": "yes",
    "defibrillator:location": "Standort;Mittlerer Haupteingang des Gebäudes, an der Frontwand rechts. Der Haupteingang ist bis 22 Uhr, täglich geöffnet.",
    "description": "Der Haupteingang ist bis 22 Uhr täglich geöffnet.",
    "emergency": "defibrillator",
    "emergency:phone": "144",
    "indoor": "yes",
    "level": "0",
    "name": "Rutishauser Auto- und Bootssattlerei",
    "opening_hours": "Mo-Su 08:00-22:00",
    "id": "node/7637818931"
  },
  "geometry": {
    "type": "Point",
    "coordinates": [
      8.308479,
      46.9814774
    ]
  }
},
{
  "type": "Feature",
  "id": "node/7637818932",
  "properties": {
    "description": "bei Rezeption",
    "emergency": "defibrillator",
    "emergency:phone": "144",
    "name": "Seehotel Pilatus",
    "id": "node/7637818932"
  },
  "geometry": {
    "type": "Point",
    "coordinates": [
      8.3123011,
      46.9861541
    ]
  }
},
{
  "type": "Feature",
  "id": "node/7637818933",
  "properties": {
    "access": "yes",
    "defibrillator:location": "Standort;Haupteingang links, rechte Seite bei Lifttüren, an der Wand/ 2. Gerät bei der Physio",
    "emergency": "defibrillator",
    "emergency:phone": "144",
    "indoor": "yes",
    "name": "Seniorenzentrum Zwyden",
    "opening_hours": "24/7",
    "operator": "Gemeinde Hergiswil",
    "id": "node/7637818933"
  },
  "geometry": {
    "type": "Point",
    "coordinates": [
      8.3096079,
      46.9876971
    ]
  }
},
{
  "type": "Feature",
  "id": "node/7637818934",
  "properties": {
    "access": "yes",
    "defibrillator:location": "Auf der rechten Seite der Glastüre \"Einstellhalle Dorf\", südlicher Zugang Sportplatz, Niveau Sportplatz",
    "emergency": "defibrillator",
    "emergency:phone": "144",
    "indoor": "no",
    "name": "Sportplatz Dorf",
    "operator": "Gemeinde Hergiswil",
    "id": "node/7637818934"
  },
  "geometry": {
    "type": "Point",
    "coordinates": [
      8.3105103,
      46.985244
    ]
  }
},
{
  "type": "Feature",
  "id": "node/7637818935",
  "properties": {
    "access": "yes",
    "defibrillator:location": "Standort;Pausenplatz, Eingang Ost bei Treppe",
    "emergency": "defibrillator",
    "emergency:phone": "144",
    "indoor": "no",
    "name": "Sportplatz Matt",
    "operator": "Gemeinde Hergiswil",
    "id": "node/7637818935"
  },
  "geometry": {
    "type": "Point",
    "coordinates": [
      8.3114617,
      46.9932981
    ]
  }
},
{
  "type": "Feature",
  "id": "node/7637818976",
  "properties": {
    "description": "vor Tiefgarage bei Veloraum",
    "emergency": "defibrillator",
    "emergency:phone": "144",
    "name": "3-Familienhaus",
    "id": "node/7637818976"
  },
  "geometry": {
    "type": "Point",
    "coordinates": [
      8.350982,
      46.9795918
    ]
  }
},
{
  "type": "Feature",
  "id": "node/7637818995",
  "properties": {
    "emergency": "defibrillator",
    "emergency:phone": "144",
    "name": "Mehrzweckhalle St. Jakob",
    "id": "node/7637818995"
  },
  "geometry": {
    "type": "Point",
    "coordinates": [
      8.30561,
      46.93434
    ]
  }
},
{
  "type": "Feature",
  "id": "node/7637818996",
  "properties": {
    "description": "Haupteingang",
    "emergency": "defibrillator",
    "emergency:phone": "144",
    "name": "Schulhaus Morgenstern",
    "id": "node/7637818996"
  },
  "geometry": {
    "type": "Point",
    "coordinates": [
      8.3407034,
      46.9568958
    ]
  }
},
{
  "type": "Feature",
  "id": "node/7637818997",
  "properties": {
    "access": "yes",
    "defibrillator:location": "Etage 4 (Terassenhaus) Lift, oder Aussentreppe (2x15 Stufen)",
    "emergency": "defibrillator",
    "emergency:phone": "144",
    "opening_hours": "24/7",
    "id": "node/7637818997"
  },
  "geometry": {
    "type": "Point",
    "coordinates": [
      8.3400926,
      46.9577963
    ]
  }
},
{
  "type": "Feature",
  "id": "node/7637818998",
  "properties": {
    "description": "Rezeption",
    "emergency": "defibrillator",
    "emergency:phone": "144",
    "name": "Hotel Villa Honegg",
    "id": "node/7637818998"
  },
  "geometry": {
    "type": "Point",
    "coordinates": [
      8.4029316,
      46.9948968
    ]
  }
},
{
  "type": "Feature",
  "id": "node/7637818999",
  "properties": {
    "description": "Treppenhaus EG",
    "emergency": "defibrillator",
    "emergency:phone": "144",
    "name": "Lifetec Ecomatic AG",
    "id": "node/7637818999"
  },
  "geometry": {
    "type": "Point",
    "coordinates": [
      8.4119839,
      46.981798
    ]
  }
},
{
  "type": "Feature",
  "id": "node/7637819000",
  "properties": {
    "description": "Samaritermagazin",
    "emergency": "defibrillator",
    "emergency:phone": "144",
    "name": "Samaritermagazin Werkhof",
    "id": "node/7637819000"
  },
  "geometry": {
    "type": "Point",
    "coordinates": [
      8.4146242,
      46.984376
    ]
  }
},
{
  "type": "Feature",
  "id": "node/7637819001",
  "properties": {
    "description": "Im Foyer Schulhaus 5",
    "emergency": "defibrillator",
    "emergency:phone": "144",
    "name": "Schulhaus",
    "id": "node/7637819001"
  },
  "geometry": {
    "type": "Point",
    "coordinates": [
      8.41279,
      46.983
    ]
  }
},
{
  "type": "Feature",
  "id": "node/7637819002",
  "properties": {
    "description": "vor Garagen Eingang",
    "emergency": "defibrillator",
    "emergency:phone": "144",
    "name": "Th. Rebsamen (Privat)",
    "id": "node/7637819002"
  },
  "geometry": {
    "type": "Point",
    "coordinates": [
      8.3992933,
      46.9807266
    ]
  }
},
{
  "type": "Feature",
  "id": "node/7637819010",
  "properties": {
    "description": "Ein- / Aussteigzone? rechts der Türe zum Sanitätszimmer",
    "emergency": "defibrillator",
    "emergency:phone": "144",
    "name": "Station Stand Titlisbahn",
    "id": "node/7637819010"
  },
  "geometry": {
    "type": "Point",
    "coordinates": [
      8.417291,
      46.7825364
    ]
  }
},
{
  "type": "Feature",
  "id": "node/7637819019",
  "properties": {
    "description": "Neben der Frauentoilette",
    "emergency": "defibrillator",
    "emergency:phone": "144",
    "name": "Bergstation Stockhütte",
    "id": "node/7637819019"
  },
  "geometry": {
    "type": "Point",
    "coordinates": [
      8.5049705,
      46.944918
    ]
  }
},
{
  "type": "Feature",
  "id": "node/7637819020",
  "properties": {
    "description": "Eingang Mehrzweckhalle",
    "emergency": "defibrillator",
    "emergency:phone": "144",
    "name": "MZA Schule",
    "id": "node/7637819020"
  },
  "geometry": {
    "type": "Point",
    "coordinates": [
      8.5192395,
      46.9573578
    ]
  }
},
{
  "type": "Feature",
  "id": "node/7637819021",
  "properties": {
    "description": "Turnhalle Eingang Eingang Schulhaus 3",
    "emergency": "defibrillator",
    "emergency:phone": "144",
    "name": "neues Schulhaus Turnhalle",
    "id": "node/7637819021"
  },
  "geometry": {
    "type": "Point",
    "coordinates": [
      8.5193002,
      46.9577621
    ]
  }
},
{
  "type": "Feature",
  "id": "node/7637819022",
  "properties": {
    "defibrillator:location": "im Freien bei der Postautohaltestelle",
    "description": "Postautohaltestelle",
    "emergency": "defibrillator",
    "emergency:phone": "144",
    "name": "Postautohaltestelle",
    "opening_hours": "24/7",
    "id": "node/7637819022"
  },
  "geometry": {
    "type": "Point",
    "coordinates": [
      8.5153971,
      46.9563755
    ]
  }
},
{
  "type": "Feature",
  "id": "node/7637819086",
  "properties": {
    "description": "rechts vom Haupteingang bei Kücheneingang",
    "emergency": "defibrillator",
    "emergency:phone": "144",
    "name": "MZA Steini",
    "id": "node/7637819086"
  },
  "geometry": {
    "type": "Point",
    "coordinates": [
      8.38955,
      46.92596
    ]
  }
},
{
  "type": "Feature",
  "id": "node/7637819095",
  "properties": {
    "access": "yes",
    "description": "höhe TCS Camping links neben Altstoffsammelstelle",
    "emergency": "defibrillator",
    "emergency:phone": "144",
    "indoor": "no",
    "name": "Altstoff-Sammelstelle",
    "opening_hours": "24/7",
    "id": "node/7637819095"
  },
  "geometry": {
    "type": "Point",
    "coordinates": [
      8.4184061,
      46.9795663
    ]
  }
},
{
  "type": "Feature",
  "id": "node/7637819096",
  "properties": {
    "defibrillator:location": "Tor 1 Aussenwand",
    "emergency": "defibrillator",
    "emergency:phone": "144",
    "indoor": "no",
    "name": "Feuerwehrlokal Buochs-Ennetbürgen",
    "id": "node/7637819096"
  },
  "geometry": {
    "type": "Point",
    "coordinates": [
      8.4143882,
      46.9786847
    ]
  }
},
{
  "type": "Feature",
  "id": "node/7637819097",
  "properties": {
    "access": "yes",
    "description": "links neben Haupteingang",
    "emergency": "defibrillator",
    "emergency:phone": "144",
    "name": "Gemeindeverwaltung",
    "opening_hours": "24/7",
    "id": "node/7637819097"
  },
  "geometry": {
    "type": "Point",
    "coordinates": [
      8.4228077,
      46.9740726
    ]
  }
},
{
  "type": "Feature",
  "id": "node/7637819098",
  "properties": {
    "description": "Haupteingang",
    "emergency": "defibrillator",
    "emergency:phone": "144",
    "name": "Glas Trösch",
    "id": "node/7637819098"
  },
  "geometry": {
    "type": "Point",
    "coordinates": [
      8.3894475,
      46.9665772
    ]
  }
},
{
  "type": "Feature",
  "id": "node/7637819099",
  "properties": {
    "emergency": "defibrillator",
    "emergency:phone": "144",
    "name": "Lückertsmatthalle",
    "id": "node/7637819099"
  },
  "geometry": {
    "type": "Point",
    "coordinates": [
      8.4221527,
      46.9729043
    ]
  }
},
{
  "type": "Feature",
  "id": "node/7637819100",
  "properties": {
    "access": "yes",
    "description": "Aussentreppe beim Parkplatz links neben Treppenaufgang",
    "emergency": "defibrillator",
    "emergency:phone": "144",
    "name": "Sporthalle Breitli",
    "opening_hours": "24/7",
    "id": "node/7637819100"
  },
  "geometry": {
    "type": "Point",
    "coordinates": [
      8.4231819,
      46.9724097
    ]
  }
},
{
  "type": "Feature",
  "id": "node/7637819101",
  "properties": {
    "emergency": "defibrillator",
    "emergency:phone": "144",
    "name": "TCS Camping Haupteingang",
    "id": "node/7637819101"
  },
  "geometry": {
    "type": "Point",
    "coordinates": [
      8.4180602,
      46.9795342
    ]
  }
},
{
  "type": "Feature",
  "id": "node/7637819113",
  "properties": {
    "access": "yes",
    "defibrillator:location": "Bergstation Klewenalp, Aussenwand Bahnstation",
    "emergency": "defibrillator",
    "emergency:phone": "144",
    "name": "Bergbahnen Beckenried-Emmetten AG",
    "opening_hours": "24/7",
    "id": "node/7637819113"
  },
  "geometry": {
    "type": "Point",
    "coordinates": [
      8.4814844,
      46.9356443
    ]
  }
},
{
  "type": "Feature",
  "id": "node/7637819114",
  "properties": {
    "access": "yes",
    "description": "an Mauer zum Lielibach",
    "emergency": "defibrillator",
    "emergency:phone": "144",
    "name": "Denner Satellit",
    "opening_hours": "24/7",
    "id": "node/7637819114"
  },
  "geometry": {
    "type": "Point",
    "coordinates": [
      8.4659969,
      46.9701988
    ]
  }
},
{
  "type": "Feature",
  "id": "node/7637819115",
  "properties": {
    "access": "yes",
    "description": "beim WC-Gebäude, Seite Rütenenbeizli",
    "emergency": "defibrillator",
    "emergency:phone": "144",
    "indoor": "no",
    "name": "Freizeitanlage Rütenen",
    "opening_hours": "24/7",
    "id": "node/7637819115"
  },
  "geometry": {
    "type": "Point",
    "coordinates": [
      8.5089224,
      46.9631617
    ]
  }
},
{
  "type": "Feature",
  "id": "node/7637819116",
  "properties": {
    "defibrillator:location": "Oberstufenschulhaus",
    "description": "beim Velounterstand",
    "emergency": "defibrillator",
    "emergency:phone": "144",
    "name": "Oberstufenschulhaus",
    "id": "node/7637819116"
  },
  "geometry": {
    "type": "Point",
    "coordinates": [
      8.4700283,
      46.9666595
    ]
  }
},
{
  "type": "Feature",
  "id": "node/7637819117",
  "properties": {
    "description": "Sekretariat",
    "emergency": "defibrillator",
    "emergency:phone": "144",
    "name": "s-Leit Swissengineering AG",
    "id": "node/7637819117"
  },
  "geometry": {
    "type": "Point",
    "coordinates": [
      8.464614,
      46.9700403
    ]
  }
},
{
  "type": "Feature",
  "id": "node/7637819118",
  "properties": {
    "access": "yes",
    "defibrillator:location": "An der Wand",
    "description": "Seite Hauptstr. neben Raiffeisen Bancomat",
    "emergency": "defibrillator",
    "emergency:phone": "144",
    "name": "Tourismusbüro",
    "opening_hours": "24/7",
    "wheelchair": "limited",
    "id": "node/7637819118"
  },
  "geometry": {
    "type": "Point",
    "coordinates": [
      8.4753374,
      46.9669349
    ]
  }
},
{
  "type": "Feature",
  "id": "node/7637819119",
  "properties": {
    "access": "yes",
    "defibrillator:location": "WC Anlage Sessellift Aengi Bergstation",
    "emergency": "defibrillator",
    "emergency:phone": "144",
    "indoor": "yes",
    "name": "Bergbahnen Beckenried-Emmeten AG",
    "opening_hours": "24/7",
    "id": "node/7637819119"
  },
  "geometry": {
    "type": "Point",
    "coordinates": [
      8.4657007,
      46.9704961
    ]
  }
},
{
  "type": "Feature",
  "id": "node/7637939086",
  "properties": {
    "emergency": "defibrillator",
    "emergency:phone": "144",
    "id": "node/7637939086"
  },
  "geometry": {
    "type": "Point",
    "coordinates": [
      8.4731492,
      46.9404293
    ]
  }
},
{
  "type": "Feature",
  "id": "node/7638001685",
  "properties": {
    "emergency": "defibrillator",
    "emergency:phone": "144",
    "id": "node/7638001685"
  },
  "geometry": {
    "type": "Point",
    "coordinates": [
      8.4815578,
      46.9357094
    ]
  }
},
{
  "type": "Feature",
  "id": "node/8576857317",
  "properties": {
    "access": "yes",
    "defibrillator:location": "Schreinerei Meyer AG",
    "description": "Vor dem Eingang",
    "emergency": "defibrillator",
    "emergency:phone": "144",
    "indoor": "no",
    "opening_hours": "24/7",
    "operator": "Schreinerei Meyer AG",
    "id": "node/8576857317"
  },
  "geometry": {
    "type": "Point",
    "coordinates": [
      8.3949689,
      46.9791725
    ]
  }
},
{
  "type": "Feature",
  "id": "node/8773057117",
  "properties": {
    "access": "yes",
    "defibrillator:location": "6333 Obbürgen",
    "description": "Insgesamt 14 Stück im ganzen Resort",
    "emergency": "defibrillator",
    "emergency:phone": "144",
    "indoor": "yes",
    "operator": "Bürgenstock Hotels AG",
    "id": "node/8773057117"
  },
  "geometry": {
    "type": "Point",
    "coordinates": [
      8.3790013,
      46.9966029
    ]
  }
},
{
  "type": "Feature",
  "id": "node/8838998717",
  "properties": {
    "access": "yes",
    "defibrillator:location": "Theater Buochs",
    "emergency": "defibrillator",
    "emergency:phone": "144",
    "indoor": "no",
    "id": "node/8838998717"
  },
  "geometry": {
    "type": "Point",
    "coordinates": [
      8.4209182,
      46.9737047
    ]
  }
},
{
  "type": "Feature",
  "id": "node/8840827322",
  "properties": {
    "access": "yes",
    "defibrillator:location": "Schnyderpark, Eingang rechts",
    "emergency": "defibrillator",
    "emergency:phone": "144",
    "indoor": "yes",
    "opening_hours": "06:30-18:30",
    "id": "node/8840827322"
  },
  "geometry": {
    "type": "Point",
    "coordinates": [
      8.3814162,
      46.9641736
    ]
  }
},
{
  "type": "Feature",
  "id": "node/8985701024",
  "properties": {
    "access": "no",
    "defibrillator:location": "fix it Znüniraum",
    "description": "während Arbeiszeite ",
    "emergency": "defibrillator",
    "emergency:phone": "144",
    "indoor": "yes",
    "operator": "fixit",
    "id": "node/8985701024"
  },
  "geometry": {
    "type": "Point",
    "coordinates": [
      8.3327182,
      46.9601418
    ]
  }
},
{
  "type": "Feature",
  "id": "node/9129946866",
  "properties": {
    "defibrillator:location": "ref. Kirche (24)",
    "emergency": "defibrillator",
    "emergency:phone": "144",
    "id": "node/9129946866"
  },
  "geometry": {
    "type": "Point",
    "coordinates": [
      8.3697192,
      46.9589849
    ]
  }
},
{
  "type": "Feature",
  "id": "node/9133815217",
  "properties": {
    "access": "yes",
    "defibrillator:location": "Paint-Styling AG",
    "emergency": "defibrillator",
    "emergency:phone": "144",
    "indoor": "no",
    "opening_hours": "24/7",
    "operator": "Paint-Styling AG",
    "phone": "0416297500",
    "id": "node/9133815217"
  },
  "geometry": {
    "type": "Point",
    "coordinates": [
      8.392437,
      46.9339096
    ]
  }
},
{
  "type": "Feature",
  "id": "node/9339536025",
  "properties": {
    "defibrillator:location": "Beim Hauseingang links",
    "emergency": "defibrillator",
    "emergency:phone": "144",
    "indoor": "no",
    "id": "node/9339536025"
  },
  "geometry": {
    "type": "Point",
    "coordinates": [
      8.4237279,
      46.9779092
    ]
  }
},
{
  "type": "Feature",
  "id": "node/9531740104",
  "properties": {
    "defibrillator:location": "Bergbahnen Beckenried-Emmettten AG",
    "emergency": "defibrillator",
    "emergency:phone": "144",
    "id": "node/9531740104"
  },
  "geometry": {
    "type": "Point",
    "coordinates": [
      8.4731957,
      46.9663446
    ]
  }
},
{
  "type": "Feature",
  "id": "node/9531752713",
  "properties": {
    "defibrillator:location": "Kirchensaal Büren",
    "emergency": "defibrillator",
    "emergency:phone": "144",
    "id": "node/9531752713"
  },
  "geometry": {
    "type": "Point",
    "coordinates": [
      8.3974401,
      46.9403163
    ]
  }
},
{
  "type": "Feature",
  "id": "node/9531808071",
  "properties": {
    "defibrillator:location": "Gemeindehaus",
    "emergency": "defibrillator",
    "emergency:phone": "144",
    "id": "node/9531808071"
  },
  "geometry": {
    "type": "Point",
    "coordinates": [
      8.3909187,
      46.9314136
    ]
  }
},
{
  "type": "Feature",
  "id": "node/9532043463",
  "properties": {
    "defibrillator:location": "Schulhaus",
    "emergency": "defibrillator",
    "emergency:phone": "144",
    "id": "node/9532043463"
  },
  "geometry": {
    "type": "Point",
    "coordinates": [
      8.4135097,
      46.9839304
    ]
  }
},
{
  "type": "Feature",
  "id": "node/9534148503",
  "properties": {
    "defibrillator:location": "Feuerwehr Lokal Kehrsiten",
    "emergency": "defibrillator",
    "emergency:phone": "144",
    "indoor": "no",
    "operator": "Politische Gemeinde Stansstad",
    "id": "node/9534148503"
  },
  "geometry": {
    "type": "Point",
    "coordinates": [
      8.3649789,
      46.9989233
    ]
  }
},
{
  "type": "Feature",
  "id": "node/9553479159",
  "properties": {
    "defibrillator:location": "Holzbau Kayser Gerenmüll 16",
    "emergency": "defibrillator",
    "emergency:phone": "144",
    "id": "node/9553479159"
  },
  "geometry": {
    "type": "Point",
    "coordinates": [
      8.3836816,
      46.947529
    ]
  }
},
{
  "type": "Feature",
  "id": "node/9553829581",
  "properties": {
    "defibrillator:location": "Schulhaus Turmatt",
    "emergency": "defibrillator",
    "emergency:phone": "144",
    "indoor": "yes",
    "id": "node/9553829581"
  },
  "geometry": {
    "type": "Point",
    "coordinates": [
      8.3642027,
      46.9618538
    ]
  }
},
{
  "type": "Feature",
  "id": "node/9609440317",
  "properties": {
    "defibrillator:location": "Praxis am Bürgen",
    "emergency": "defibrillator",
    "emergency:phone": "144",
    "indoor": "no",
    "opening_hours": "Mo-Fr 07:30-12:00,13:30-18:00; Sa 08:00-12:00",
    "id": "node/9609440317"
  },
  "geometry": {
    "type": "Point",
    "coordinates": [
      8.4132258,
      46.9851928
    ]
  }
},
{
  "type": "Feature",
  "id": "node/9649269228",
  "properties": {
    "access": "yes",
    "defibrillator:location": "An der Fassade, Eingang Parkplatzseite, Hansmatt 30, Stans",
    "emergency": "defibrillator",
    "emergency:phone": "144",
    "indoor": "no",
    "opening_hours": "24/7",
    "operator": "Maréchaux Elektro AG Stans, Hansmatt 30, 6370 Stans",
    "phone": "+41 41 618 85 85",
    "id": "node/9649269228"
  },
  "geometry": {
    "type": "Point",
    "coordinates": [
      8.3514521,
      46.9678888
    ]
  }
},
{
  "type": "Feature",
  "id": "node/9805273917",
  "properties": {
    "defibrillator:location": "Haupteingang",
    "description": "während den Öffnungszeiten verfügbar",
    "emergency": "defibrillator",
    "emergency:phone": "144",
    "indoor": "no",
    "opening_hours": "Mo-Fr 08:00-17:00",
    "id": "node/9805273917"
  },
  "geometry": {
    "type": "Point",
    "coordinates": [
      8.4081736,
      46.9840251
    ]
  }
},
{
  "type": "Feature",
  "id": "node/9893720056",
  "properties": {
    "emergency": "defibrillator",
    "emergency:phone": "144",
    "id": "node/9893720056"
  },
  "geometry": {
    "type": "Point",
    "coordinates": [
      8.3677758,
      46.9676419
    ]
  }
},
{
  "type": "Feature",
  "id": "node/9917845075",
  "properties": {
    "access": "yes",
    "defibrillator:location": "Verkaufsfläche LIDL",
    "description": "während Öffnungszeiten verfügbar",
    "emergency": "defibrillator",
    "emergency:phone": "144",
    "indoor": "yes",
    "operator": "LIDL Schweiz",
    "phone": "+41716278074",
    "id": "node/9917845075"
  },
  "geometry": {
    "type": "Point",
    "coordinates": [
      8.3577455,
      46.9673499
    ]
  }
},
{
  "type": "Feature",
  "id": "node/10278144409",
  "properties": {
    "defibrillator:location": "Eingang",
    "description": "während Öffnungszeiten",
    "emergency": "defibrillator",
    "emergency:phone": "144",
    "indoor": "yes",
    "level": "0",
    "opening_hours": "Mo-Fr 07:00-20:00",
    "operator": "Privatperson",
    "phone": "079 204 93 08",
    "id": "node/10278144409"
  },
  "geometry": {
    "type": "Point",
    "coordinates": [
      8.3125949,
      46.9873374
    ]
  }
},
{
  "type": "Feature",
  "id": "node/10554368809",
  "properties": {
    "access": "yes",
    "defibrillator:location": "Werkhof Gemeinde Stansstad",
    "description": "24h zugänglich",
    "emergency": "defibrillator",
    "emergency:phone": "144",
    "indoor": "no",
    "level": "0",
    "opening_hours": "24/7",
    "operator": "Gemeinde Stansstad",
    "id": "node/10554368809"
  },
  "geometry": {
    "type": "Point",
    "coordinates": [
      8.3396231,
      46.972754
    ]
  }
},
{
  "type": "Feature",
  "id": "node/10558952009",
  "properties": {
    "access": "yes",
    "defibrillator:location": "Schulhaus Dorf 3, 6363 Obbürgen",
    "description": "Bei Bushaltestelle",
    "emergency": "defibrillator",
    "emergency:phone": "144",
    "indoor": "no",
    "level": "0",
    "opening_hours": "24/7",
    "operator": "Politische Gemeinde Stansstad",
    "source": "local_knowledge, defikarte.ch",
    "id": "node/10558952009"
  },
  "geometry": {
    "type": "Point",
    "coordinates": [
      8.3622909,
      46.9821738
    ]
  }
},
{
  "type": "Feature",
  "id": "node/10558995610",
  "properties": {
    "access": "yes",
    "defibrillator:location": "Bahnhofstrasse 19 RIEDSUNNÄ 1",
    "emergency": "defibrillator",
    "emergency:phone": "144",
    "indoor": "no",
    "opening_hours": "24/7",
    "operator": "Politische Gemeinde Stansstad",
    "source": "local_knowledge, defikarte.ch",
    "id": "node/10558995610"
  },
  "geometry": {
    "type": "Point",
    "coordinates": [
      8.3369923,
      46.9765741
    ]
  }
},
{
  "type": "Feature",
  "id": "node/10582500005",
  "properties": {
    "access": "yes",
    "defibrillator:location": "Beim Haupteingang Rechts neben der Türe",
    "emergency": "defibrillator",
    "emergency:phone": "144",
    "indoor": "no",
    "opening_hours": "24/7",
    "operator": "Alois Bader Ag",
    "phone": "+4141 820 12 58",
    "source": "local_knowledge, defikarte.ch",
    "id": "node/10582500005"
  },
  "geometry": {
    "type": "Point",
    "coordinates": [
      8.5305297,
      46.9583179
    ]
  }
},
{
  "type": "Feature",
  "id": "node/10601266406",
  "properties": {
    "defibrillator:location": "Diethelmstrasse 9",
    "description": "Private home",
    "emergency": "defibrillator",
    "emergency:phone": "144",
    "indoor": "yes",
    "level": "2",
    "opening_hours": "24/7",
    "operator": "Private person",
    "source": "local_knowledge, defikarte.ch",
    "id": "node/10601266406"
  },
  "geometry": {
    "type": "Point",
    "coordinates": [
      8.350752,
      46.980461
    ]
  }
},
{
  "type": "Feature",
  "id": "node/10604114005",
  "properties": {
    "access": "yes",
    "defibrillator:location": "Kanalstrasse 15",
    "description": "neben Hallen Tor, Seite Stans",
    "emergency": "defibrillator",
    "emergency:phone": "144",
    "indoor": "no",
    "opening_hours": "24/7",
    "operator": "Hochmuth Bootsbau AG",
    "phone": "+41416191888",
    "source": "local_knowledge, defikarte.ch",
    "id": "node/10604114005"
  },
  "geometry": {
    "type": "Point",
    "coordinates": [
      8.3428798,
      46.9703922
    ]
  }
},
{
  "type": "Feature",
  "id": "node/10763310294",
  "properties": {
    "access": "yes",
    "defibrillator:location": "EG, Kantine bei der Garderobe",
    "description": "gelber Koffer",
    "emergency": "defibrillator",
    "emergency:phone": "144",
    "indoor": "yes",
    "name": "Stiftung Altersfürsorge Buochs",
    "opening_hours": "Mo-Fr 08:00-12:00, 14:00-16:30",
    "operator": "Lifetec AG Schweiz",
    "phone": "+41 800 122 144",
    "id": "node/10763310294"
  },
  "geometry": {
    "type": "Point",
    "coordinates": [
      8.41713,
      46.97467
    ]
  }
},
{
  "type": "Feature",
  "id": "node/10959406806",
  "properties": {
    "access": "yes",
    "defibrillator:location": "Beim Eingang Tagesstätte",
    "emergency": "defibrillator",
    "emergency:phone": "144",
    "indoor": "no",
    "opening_hours": "24/7",
    "phone": "+41416187878",
    "source": "local_knowledge, defikarte.ch",
    "id": "node/10959406806"
  },
  "geometry": {
    "type": "Point",
    "coordinates": [
      8.374173,
      46.9625759
    ]
  }
},
{
  "type": "Feature",
  "id": "node/11182719539",
  "properties": {
    "access": "yes",
    "defibrillator:location": "Sigristenwohnhaus bei St. Jost Kapelle ",
    "description": "Im Damen WC immer zugänglich",
    "emergency": "defibrillator",
    "emergency:phone": "144",
    "indoor": "yes",
    "opening_hours": "24/7",
    "operator": "Kirchgemeinde Ennetbürgen",
    "phone": "+41 79 786 45 48",
    "source": "local_knowledge, defikarte.ch",
    "id": "node/11182719539"
  },
  "geometry": {
    "type": "Point",
    "coordinates": [
      8.4321302,
      46.9968473
    ]
  }
},
{
  "type": "Feature",
  "id": "node/11265068069",
  "properties": {
    "access": "yes",
    "defibrillator:location": "Brisenstrasse 2 6382 Büren Hauptteingang Büros rechts ",
    "description": "24/7",
    "emergency": "defibrillator",
    "emergency:phone": "144",
    "indoor": "no",
    "opening_hours": "24/7",
    "operator": "Fenster Bünter AG",
    "phone": "+41793116261",
    "source": "local_knowledge, defikarte.ch",
    "id": "node/11265068069"
  },
  "geometry": {
    "type": "Point",
    "coordinates": [
      8.3947778,
      46.9376271
    ]
  }
},
{
  "type": "Feature",
  "id": "node/11362915869",
  "properties": {
    "access": "yes",
    "defibrillator:location": "kath. Kirche lautet: Güterstrasse 19, 6374 Buochs ",
    "description": "Beim Friedhof ",
    "emergency": "defibrillator",
    "emergency:phone": "144",
    "indoor": "no",
    "opening_hours": "24/7 ",
    "operator": "Katholisches Pfarramt Buochs",
    "phone": "+41 41 620 11 67",
    "source": "local_knowledge, defikarte.ch",
    "id": "node/11362915869"
  },
  "geometry": {
    "type": "Point",
    "coordinates": [
      8.4208703,
      46.9713874
    ]
  }
},
{
  "type": "Feature",
  "id": "node/11463516769",
  "properties": {
    "access": "no",
    "defibrillator:location": "Bergstation Luftseilbahn Niederbauen",
    "emergency": "defibrillator",
    "emergency:phone": "144",
    "indoor": "no",
    "source": "local_knowledge, defikarte.ch",
    "id": "node/11463516769"
  },
  "geometry": {
    "type": "Point",
    "coordinates": [
      8.5349286,
      46.9464683
    ]
  }
},
{
  "type": "Feature",
  "id": "node/11753161169",
  "properties": {
    "access": "yes",
    "defibrillator:location": "Rotzloch 2",
    "description": "Beim Haupteingang",
    "emergency": "defibrillator",
    "emergency:phone": "144",
    "indoor": "no",
    "level": "0",
    "opening_hours": "24/7",
    "operator": "SPAG AG",
    "phone": "+41413677030",
    "source": "local_knowledge, defikarte.ch",
    "id": "node/11753161169"
  },
  "geometry": {
    "type": "Point",
    "coordinates": [
      8.3360982,
      46.9671623
    ]
  }
},
{
  "type": "Feature",
  "id": "node/11985351670",
  "properties": {
    "access": "permissive",
    "defibrillator:location": "SWISSINT Kursgebäude",
    "description": "Eingangsbereich ",
    "emergency": "defibrillator",
    "emergency:phone": "144",
    "indoor": "no",
    "level": "0",
    "operator": "Wpl Stans, SWISSINT",
    "id": "node/11985351670"
  },
  "geometry": {
    "type": "Point",
    "coordinates": [
      8.3883594,
      46.9588304
    ]
  }
},
{
  "type": "Feature",
  "id": "node/12012059069",
  "properties": {
    "access": "yes",
    "defibrillator:location": "Drachenalp Fräkmüntegg",
    "description": "im Sommer 24/7",
    "emergency": "defibrillator",
    "emergency:phone": "144",
    "indoor": "no",
    "opening_hours": "24/7 ",
    "operator": "Pilatus-Bahnen AG",
    "phone": "+41 41 329 11 11",
    "source": "local_knowledge, defikarte.ch",
    "id": "node/12012059069"
  },
  "geometry": {
    "type": "Point",
    "coordinates": [
      8.2538439,
      46.9903355
    ]
  }
},
{
  "type": "Feature",
  "id": "node/12124550801",
  "properties": {
    "access": "yes",
    "defibrillator:location": "Station Fräkmüntegg",
    "emergency": "defibrillator",
    "emergency:phone": "144",
    "indoor": "no",
    "opening_hours": "24/7",
    "operator": "PILATUS-BAHNEN AG",
    "source": "local_knowledge, defikarte.ch",
    "id": "node/12124550801"
  },
  "geometry": {
    "type": "Point",
    "coordinates": [
      8.2514781,
      46.990691
    ]
  }
},
{
  "type": "Feature",
  "id": "node/12288345501",
  "properties": {
    "defibrillator:location": "Evangelisch Reformiertes Pfarramt",
    "description": "Beim Eingang auf der linken Seite",
    "emergency": "defibrillator",
    "emergency:phone": "144",
    "indoor": "no",
    "level": "0",
    "opening_hours": "24/7",
    "id": "node/12288345501"
  },
  "geometry": {
    "type": "Point",
    "coordinates": [
      8.4238167,
      46.9778329
    ]
  }
},
{
  "type": "Feature",
  "id": "node/12323574601",
  "properties": {
    "access": "yes",
    "defibrillator:location": "Rieden 1, Standort - Eingang Richtung Autobahn neben der Tankstelle",
    "description": "24 h Zugänglich (Offizieller Kasten, öffnen per Knopfdruck)",
    "emergency": "defibrillator",
    "emergency:phone": "144",
    "indoor": "no",
    "level": "0",
    "opening_hours": "24/7",
    "operator": "Josef Gut AG",
    "source": "local_knowledge, defikarte.ch",
    "id": "node/12323574601"
  },
  "geometry": {
    "type": "Point",
    "coordinates": [
      8.3822089,
      46.9652228
    ]
  }
},
{
  "type": "Feature",
  "id": "node/12339185901",
  "properties": {
    "access": "yes",
    "defibrillator:location": "beim Kreisel Autobahnausfahrt A2 Hergiswil, vor Unterführung Richtung Hirsernstrasse",
    "emergency": "defibrillator",
    "emergency:phone": "144",
    "indoor": "no",
    "opening_hours": "24/7",
    "operator": "Gemeinde Hergiswil",
    "phone": "+41 41 632 65 83",
    "source": "local_knowledge, defikarte.ch",
    "id": "node/12339185901"
  },
  "geometry": {
    "type": "Point",
    "coordinates": [
      8.3111797,
      46.9978617
    ]
  }
},
{
  "type": "Feature",
  "id": "node/12339316801",
  "properties": {
    "defibrillator:location": "Schwandi, Schwandigaden bei Treppenaufstieg an der Aussenfassade Wand",
    "emergency": "defibrillator",
    "emergency:phone": "144",
    "indoor": "no",
    "opening_hours": "24/7",
    "operator": "Gemeinde Hergiswil",
    "phone": "+41 41 632 65 83",
    "source": "local_knowledge, defikarte.ch",
    "id": "node/12339316801"
  },
  "geometry": {
    "type": "Point",
    "coordinates": [
      8.2878871,
      46.9874953
    ]
  }
},
{
  "type": "Feature",
  "id": "node/12339338201",
  "properties": {
    "defibrillator:location": "Aeschi, an der Nord Hausfassade",
    "emergency": "defibrillator",
    "emergency:phone": "144",
    "indoor": "no",
    "opening_hours": "24/7",
    "operator": "Gemeinde Hergiswil",
    "phone": "+41 41 632 65 83",
    "source": "local_knowledge, defikarte.ch",
    "id": "node/12339338201"
  },
  "geometry": {
    "type": "Point",
    "coordinates": [
      8.2962334,
      46.9903014
    ]
  }
}
]
}
